{
"type": "FeatureCollection",
"name": "nyc_trainstations",
"crs": { "type": "name", "properties": { "name": "urn:ogc:def:crs:EPSG::2263" } },
"features": [
{ "type": "Feature", "properties": { "rail_id": "mn9", "stop_name": "Morris Heights", "trains": "Metro North", "bcode": "36005", "stop_lat": 40.854252, "stop_lon": -73.919583 }, "geometry": { "type": "Point", "coordinates": [ 1006496.49657128599938, 250514.765151960717048 ] } },
{ "type": "Feature", "properties": { "rail_id": "mn10", "stop_name": "University Heights", "trains": "Metro North", "bcode": "36005", "stop_lat": 40.862248, "stop_lon": -73.91312 }, "geometry": { "type": "Point", "coordinates": [ 1008281.525921987486072, 253429.721870210109046 ] } },
{ "type": "Feature", "properties": { "rail_id": "mn14", "stop_name": "Spuyten Duyvil", "trains": "Metro North", "bcode": "36005", "stop_lat": 40.878245, "stop_lon": -73.921455 }, "geometry": { "type": "Point", "coordinates": [ 1005970.789845412014984, 259255.878404813178349 ] } },
{ "type": "Feature", "properties": { "rail_id": "mn16", "stop_name": "Riverdale", "trains": "Metro North", "bcode": "36005", "stop_lat": 40.903981, "stop_lon": -73.914126 }, "geometry": { "type": "Point", "coordinates": [ 1007988.354524858179502, 268634.448192777170334 ] } },
{ "type": "Feature", "properties": { "rail_id": "mn54", "stop_name": "Melrose", "trains": "Metro North", "bcode": "36005", "stop_lat": 40.825761, "stop_lon": -73.915231 }, "geometry": { "type": "Point", "coordinates": [ 1007710.475300245918334, 240135.569098397711059 ] } },
{ "type": "Feature", "properties": { "rail_id": "mn55", "stop_name": "Tremont", "trains": "Metro North", "bcode": "36005", "stop_lat": 40.847301, "stop_lon": -73.89955 }, "geometry": { "type": "Point", "coordinates": [ 1012041.312080480274744, 247987.974415425473126 ] } },
{ "type": "Feature", "properties": { "rail_id": "mn56", "stop_name": "Fordham", "trains": "Metro North", "bcode": "36005", "stop_lat": 40.8615, "stop_lon": -73.89058 }, "geometry": { "type": "Point", "coordinates": [ 1014516.561800610623322, 253164.182480508694425 ] } },
{ "type": "Feature", "properties": { "rail_id": "mn57", "stop_name": "Botanical Garden", "trains": "Metro North", "bcode": "36005", "stop_lat": 40.866555, "stop_lon": -73.883109 }, "geometry": { "type": "Point", "coordinates": [ 1016580.649160649161786, 255008.583461832487956 ] } },
{ "type": "Feature", "properties": { "rail_id": "mn58", "stop_name": "Williams Bridge", "trains": "Metro North", "bcode": "36005", "stop_lat": 40.878569, "stop_lon": -73.871064 }, "geometry": { "type": "Point", "coordinates": [ 1019905.706613977439702, 259390.427577554335585 ] } },
{ "type": "Feature", "properties": { "rail_id": "mn59", "stop_name": "Woodlawn", "trains": "Metro North", "bcode": "36005", "stop_lat": 40.895361, "stop_lon": -73.862916 }, "geometry": { "type": "Point", "coordinates": [ 1022149.362368658999912, 265511.845703834900633 ] } },
{ "type": "Feature", "properties": { "rail_id": "mn61", "stop_name": "Wakefield", "trains": "Metro North", "bcode": "36005", "stop_lat": 40.905424, "stop_lon": -73.854665 }, "geometry": { "type": "Point", "coordinates": [ 1024424.416222433908843, 269181.884729330951814 ] } },
{ "type": "Feature", "properties": { "rail_id": "mn622", "stop_name": "Yankees-E153 St.", "trains": "Metro North", "bcode": "36005", "stop_lat": 40.8253, "stop_lon": -73.9299 }, "geometry": { "type": "Point", "coordinates": [ 1003650.851649635005742, 239964.021275616658386 ] } },
{ "type": "Feature", "properties": { "rail_id": "li12", "stop_name": "Atlantic Terminal", "trains": "Long Island RR", "bcode": "36047", "stop_lat": 40.684901, "stop_lon": -73.97768 }, "geometry": { "type": "Point", "coordinates": [ 990440.309682467137463, 188805.118126743123867 ] } },
{ "type": "Feature", "properties": { "rail_id": "li13", "stop_name": "Nostrand Avenue", "trains": "Long Island RR", "bcode": "36047", "stop_lat": 40.67838, "stop_lon": -73.94822 }, "geometry": { "type": "Point", "coordinates": [ 998612.256520988885313, 186432.78558666392928 ] } },
{ "type": "Feature", "properties": { "rail_id": "li14", "stop_name": "East New York", "trains": "Long Island RR", "bcode": "36047", "stop_lat": 40.6758, "stop_lon": -73.90281 }, "geometry": { "type": "Point", "coordinates": [ 1011208.700419650413096, 185503.528152445564047 ] } },
{ "type": "Feature", "properties": { "rail_id": "li8", "stop_name": "Penn Station", "trains": "Long Island RR", "bcode": "36061", "stop_lat": 40.75058, "stop_lon": -73.99358 }, "geometry": { "type": "Point", "coordinates": [ 986028.792335661477409, 212733.264509888191242 ] } },
{ "type": "Feature", "properties": { "rail_id": "mn1", "stop_name": "Grand Central Terminal", "trains": "Metro North", "bcode": "36061", "stop_lat": 40.752998, "stop_lon": -73.977056 }, "geometry": { "type": "Point", "coordinates": [ 990606.873759313952178, 213614.987363079184433 ] } },
{ "type": "Feature", "properties": { "rail_id": "mn4", "stop_name": "Harlem-125th St.", "trains": "Metro North", "bcode": "36061", "stop_lat": 40.805157, "stop_lon": -73.939149 }, "geometry": { "type": "Point", "coordinates": [ 1001096.200107179232873, 232623.29246678200434 ] } },
{ "type": "Feature", "properties": { "rail_id": "mn11", "stop_name": "Marble Hill", "trains": "Metro North", "bcode": "36061", "stop_lat": 40.874333, "stop_lon": -73.910941 }, "geometry": { "type": "Point", "coordinates": [ 1008879.773593230522238, 257833.363798989914358 ] } },
{ "type": "Feature", "properties": { "rail_id": "li1", "stop_name": "Long Island City", "trains": "Long Island RR", "bcode": "36081", "stop_lat": 40.74128, "stop_lon": -73.95639 }, "geometry": { "type": "Point", "coordinates": [ 996334.729001167695969, 209347.919868744444102 ] } },
{ "type": "Feature", "properties": { "rail_id": "li2", "stop_name": "Hunterspoint Avenue", "trains": "Long Island RR", "bcode": "36081", "stop_lat": 40.74238, "stop_lon": -73.94679 }, "geometry": { "type": "Point", "coordinates": [ 998994.732876302557997, 209750.154932440927951 ] } },
{ "type": "Feature", "properties": { "rail_id": "li9", "stop_name": "Woodside", "trains": "Long Island RR", "bcode": "36081", "stop_lat": 40.74584, "stop_lon": -73.90297 }, "geometry": { "type": "Point", "coordinates": [ 1011136.05389113468118, 211021.155690812884131 ] } },
{ "type": "Feature", "properties": { "rail_id": "li10", "stop_name": "Forest Hills", "trains": "Long Island RR", "bcode": "36081", "stop_lat": 40.71957, "stop_lon": -73.84481 }, "geometry": { "type": "Point", "coordinates": [ 1027268.557544584502466, 201473.387548903701827 ] } },
{ "type": "Feature", "properties": { "rail_id": "li11", "stop_name": "Kew Gardens", "trains": "Long Island RR", "bcode": "36081", "stop_lat": 40.70964, "stop_lon": -73.83089 }, "geometry": { "type": "Point", "coordinates": [ 1031134.151348138926551, 197862.735705830593361 ] } },
{ "type": "Feature", "properties": { "rail_id": "li15", "stop_name": "Jamaica", "trains": "Long Island RR", "bcode": "36081", "stop_lat": 40.6996, "stop_lon": -73.80853 }, "geometry": { "type": "Point", "coordinates": [ 1037341.236377120832913, 194217.630476739403093 ] } },
{ "type": "Feature", "properties": { "rail_id": "li17", "stop_name": "Mets-Willets Point", "trains": "Long Island RR", "bcode": "36081", "stop_lat": 40.75239, "stop_lon": -73.8437 }, "geometry": { "type": "Point", "coordinates": [ 1027554.912887708866037, 213431.275328282965347 ] } },
{ "type": "Feature", "properties": { "rail_id": "li18", "stop_name": "Flushing Main Street", "trains": "Long Island RR", "bcode": "36081", "stop_lat": 40.75789, "stop_lon": -73.83135 }, "geometry": { "type": "Point", "coordinates": [ 1030972.776229939772747, 215441.446883801167132 ] } },
{ "type": "Feature", "properties": { "rail_id": "li19", "stop_name": "Murray Hill", "trains": "Long Island RR", "bcode": "36081", "stop_lat": 40.7627, "stop_lon": -73.81454 }, "geometry": { "type": "Point", "coordinates": [ 1035626.099769069580361, 217203.296520045754733 ] } },
{ "type": "Feature", "properties": { "rail_id": "li20", "stop_name": "Broadway", "trains": "Long Island RR", "bcode": "36081", "stop_lat": 40.76164, "stop_lon": -73.80176 }, "geometry": { "type": "Point", "coordinates": [ 1039167.281478389399126, 216824.858452446642332 ] } },
{ "type": "Feature", "properties": { "rail_id": "li21", "stop_name": "Auburndale", "trains": "Long Island RR", "bcode": "36081", "stop_lat": 40.76143, "stop_lon": -73.78996 }, "geometry": { "type": "Point", "coordinates": [ 1042436.344646616023965, 216755.96671765341307 ] } },
{ "type": "Feature", "properties": { "rail_id": "li22", "stop_name": "Bayside", "trains": "Long Island RR", "bcode": "36081", "stop_lat": 40.76314, "stop_lon": -73.77125 }, "geometry": { "type": "Point", "coordinates": [ 1047617.845397854689509, 217391.955420992686413 ] } },
{ "type": "Feature", "properties": { "rail_id": "li23", "stop_name": "Douglaston", "trains": "Long Island RR", "bcode": "36081", "stop_lat": 40.76806, "stop_lon": -73.74941 }, "geometry": { "type": "Point", "coordinates": [ 1053662.772759708575904, 219201.019928265450289 ] } },
{ "type": "Feature", "properties": { "rail_id": "li24", "stop_name": "Little Neck", "trains": "Long Island RR", "bcode": "36081", "stop_lat": 40.77504, "stop_lon": -73.74065 }, "geometry": { "type": "Point", "coordinates": [ 1056081.733600373612717, 221751.118509422260104 ] } },
{ "type": "Feature", "properties": { "rail_id": "li30", "stop_name": "Hollis", "trains": "Long Island RR", "bcode": "36081", "stop_lat": 40.71017, "stop_lon": -73.76675 }, "geometry": { "type": "Point", "coordinates": [ 1048915.81054734904319, 198096.669495283800643 ] } },
{ "type": "Feature", "properties": { "rail_id": "li31", "stop_name": "Queens Village", "trains": "Long Island RR", "bcode": "36081", "stop_lat": 40.71745, "stop_lon": -73.73646 }, "geometry": { "type": "Point", "coordinates": [ 1057305.352175052277744, 200772.795257661200594 ] } },
{ "type": "Feature", "properties": { "rail_id": "li32", "stop_name": "Belmont", "trains": "Long Island RR", "bcode": "36081", "stop_lat": 40.71549, "stop_lon": -73.72862 }, "geometry": { "type": "Point", "coordinates": [ 1059480.867000541184098, 200065.346607236220734 ] } },
{ "type": "Feature", "properties": { "rail_id": "li83", "stop_name": "St. Albans", "trains": "Long Island RR", "bcode": "36081", "stop_lat": 40.69118, "stop_lon": -73.76551 }, "geometry": { "type": "Point", "coordinates": [ 1049278.105613574851304, 191178.989728343382012 ] } },
{ "type": "Feature", "properties": { "rail_id": "li84", "stop_name": "Locust Manor", "trains": "Long Island RR", "bcode": "36081", "stop_lat": 40.67513, "stop_lon": -73.76504 }, "geometry": { "type": "Point", "coordinates": [ 1049424.128915837034583, 185331.880070827231975 ] } },
{ "type": "Feature", "properties": { "rail_id": "li85", "stop_name": "Laurelton", "trains": "Long Island RR", "bcode": "36081", "stop_lat": 40.66847, "stop_lon": -73.75175 }, "geometry": { "type": "Point", "coordinates": [ 1053117.428252690238878, 182915.629914003890008 ] } },
{ "type": "Feature", "properties": { "rail_id": "li86", "stop_name": "Rosedale", "trains": "Long Island RR", "bcode": "36081", "stop_lat": 40.66594, "stop_lon": -73.73555 }, "geometry": { "type": "Point", "coordinates": [ 1057614.265540559543297, 182007.035321017552633 ] } },
{ "type": "Feature", "properties": { "rail_id": "li99", "stop_name": "Far Rockaway", "trains": "Long Island RR", "bcode": "36081", "stop_lat": 40.60913, "stop_lon": -73.75054 }, "geometry": { "type": "Point", "coordinates": [ 1053514.662516209762543, 161297.500942521437537 ] } }
]
}
